$GPRMC,095345.000,A,5907.6890,N,01016.4566,E,0.00,0.00,180415,,,A*62
$GPRMC,095346.000,A,5907.6889,N,01016.4566,E,0.00,0.00,180415,,,A*69
$GPRMC,095347.000,A,5907.6889,N,01016.4566,E,0.01,0.00,180415,,,A*69
$GPRMC,095349.000,A,5907.6889,N,01016.4567,E,0.00,0.00,180415,,,A*67
$GPRMC,095353.000,A,5907.6890,N,01016.4571,E,0.00,0.00,180415,,,A*63
$GPRMC,095354.000,A,5907.6891,N,01016.4571,E,0.00,0.00,180415,,,A*65
$GPRMC,095355.000,A,5907.6891,N,01016.4571,E,0.00,0.00,180415,,,A*64
$GPRMC,095356.000,A,5907.6891,N,01016.4571,E,0.00,0.00,180415,,,A*67
$GPRMC,095357.000,A,5907.6891,N,01016.4571,E,0.00,0.00,180415,,,A*66
$GPRMC,095358.000,A,5907.6891,N,01016.4571,E,0.00,0.00,180415,,,A*69
$GPRMC,095359.000,A,5907.6891,N,01016.4571,E,0.01,0.00,180415,,,A*69
$GPRMC,095400.000,A,5907.6891,N,01016.4571,E,0.00,0.00,180415,,,A*63
$GPRMC,095401.000,A,5907.6891,N,01016.4571,E,0.01,0.00,180415,,,A*63
$GPRMC,095402.000,A,5907.6891,N,01016.4571,E,0.00,0.00,180415,,,A*61
$GPRMC,095403.000,A,5907.6891,N,01016.4571,E,0.01,0.00,180415,,,A*61
$GPRMC,095404.000,A,5907.6891,N,01016.4571,E,0.00,0.00,180415,,,A*67
$GPRMC,095405.000,A,5907.6891,N,01016.4571,E,0.00,0.00,180415,,,A*66
$GPRMC,095406.000,A,5907.6891,N,01016.4571,E,0.00,0.00,180415,,,A*65
$GPRMC,095407.000,A,5907.6891,N,01016.4571,E,0.01,0.00,180415,,,A*65
$GPRMC,095408.000,A,5907.6891,N,01016.4571,E,0.00,0.00,180415,,,A*6B
$GPRMC,095409.000,A,5907.6891,N,01016.4571,E,0.00,0.00,180415,,,A*6A
$GPRMC,095410.000,A,5907.6891,N,01016.4571,E,0.01,0.00,180415,,,A*63
$GPRMC,095411.000,A,5907.6891,N,01016.4571,E,0.00,0.00,180415,,,A*63
$GPRMC,095412.000,A,5907.6891,N,01016.4571,E,0.00,0.00,180415,,,A*60
$GPRMC,095413.000,A,5907.6891,N,01016.4571,E,0.00,0.00,180415,,,A*61
$GPRMC,095414.000,A,5907.6891,N,01016.4571,E,0.00,0.00,180415,,,A*66
$GPRMC,095415.000,A,5907.6891,N,01016.4571,E,0.00,0.00,180415,,,A*67
$GPRMC,095416.000,A,5907.6890,N,01016.4571,E,0.00,0.00,180415,,,A*65
$GPRMC,095417.000,A,5907.6890,N,01016.4571,E,0.00,0.00,180415,,,A*64
$GPRMC,095418.000,A,5907.6890,N,01016.4571,E,0.00,0.00,180415,,,A*6B
$GPRMC,095419.000,A,5907.6890,N,01016.4571,E,0.01,0.00,180415,,,A*6B
$GPRMC,095420.000,A,5907.6890,N,01016.4571,E,0.00,0.00,180415,,,A*60
$GPRMC,095421.000,A,5907.6890,N,01016.4571,E,0.00,0.00,180415,,,A*61
$GPRMC,095422.000,A,5907.6890,N,01016.4571,E,0.00,0.00,180415,,,A*62
$GPRMC,095423.000,A,5907.6890,N,01016.4571,E,0.00,0.00,180415,,,A*63
$GPRMC,095424.000,A,5907.6890,N,01016.4571,E,0.00,0.00,180415,,,A*64
$GPRMC,095425.000,A,5907.6890,N,01016.4571,E,0.00,0.00,180415,,,A*65
$GPRMC,095426.000,A,5907.6890,N,01016.4571,E,0.00,0.00,180415,,,A*66
$GPRMC,095427.000,A,5907.6890,N,01016.4571,E,0.00,0.00,180415,,,A*67
$GPRMC,095429.274,A,5907.6900,N,01016.4563,E,0.10,0.00,180415,,,A*62
$GPRMC,095433.000,A,5907.6890,N,01016.4562,E,0.05,0.00,180415,,,A*65
$GPRMC,095434.000,A,5907.6888,N,01016.4562,E,0.03,0.00,180415,,,A*6D
$GPRMC,095435.000,A,5907.6888,N,01016.4563,E,0.02,0.00,180415,,,A*6C
$GPRMC,095436.000,A,5907.6888,N,01016.4560,E,0.01,0.00,180415,,,A*6F
$GPRMC,095437.000,A,5907.6887,N,01016.4558,E,0.04,0.00,180415,,,A*6F
$GPRMC,095438.000,A,5907.6887,N,01016.4558,E,0.02,0.00,180415,,,A*66
$GPRMC,095439.000,A,5907.6886,N,01016.4557,E,0.03,0.00,180415,,,A*68
$GPRMC,095440.000,A,5907.6886,N,01016.4558,E,0.01,0.00,180415,,,A*6B
$GPRMC,095441.000,A,5907.6886,N,01016.4558,E,0.07,0.00,180415,,,A*6C
$GPRMC,095442.000,A,5907.6885,N,01016.4559,E,0.02,0.00,180415,,,A*68
$GPRMC,095443.000,A,5907.6887,N,01016.4565,E,0.07,0.00,180415,,,A*61
$GPRMC,095444.000,A,5907.6888,N,01016.4569,E,0.10,0.00,180415,,,A*63
$GPRMC,095445.000,A,5907.6889,N,01016.4573,E,0.07,0.00,180415,,,A*6E
$GPRMC,095446.000,A,5907.6890,N,01016.4575,E,0.03,0.00,180415,,,A*67
$GPRMC,095447.000,A,5907.6891,N,01016.4576,E,0.01,0.00,180415,,,A*66
$GPRMC,095448.000,A,5907.6891,N,01016.4577,E,0.01,0.00,180415,,,A*68
$GPRMC,095449.000,A,5907.6891,N,01016.4578,E,0.01,0.00,180415,,,A*66
$GPRMC,095450.000,A,5907.6892,N,01016.4579,E,0.00,0.00,180415,,,A*6D
$GPRMC,095451.000,A,5907.6892,N,01016.4579,E,0.01,0.00,180415,,,A*6D
$GPRMC,095452.000,A,5907.6893,N,01016.4579,E,0.00,0.00,180415,,,A*6E
$GPRMC,095453.000,A,5907.6893,N,01016.4579,E,0.01,0.00,180415,,,A*6E
$GPRMC,095454.000,A,5907.6893,N,01016.4579,E,0.00,0.00,180415,,,A*68
$GPRMC,095455.000,A,5907.6894,N,01016.4579,E,0.00,0.00,180415,,,A*6E
$GPRMC,095456.000,A,5907.6894,N,01016.4578,E,0.01,0.00,180415,,,A*6D
$GPRMC,095457.000,A,5907.6894,N,01016.4578,E,0.01,0.00,180415,,,A*6C
$GPRMC,095458.000,A,5907.6894,N,01016.4578,E,0.01,0.00,180415,,,A*63
$GPRMC,095459.000,A,5907.6894,N,01016.4577,E,0.00,0.00,180415,,,A*6C
$GPRMC,095500.000,A,5907.6894,N,01016.4577,E,0.01,0.00,180415,,,A*60
$GPRMC,095501.000,A,5907.6895,N,01016.4577,E,0.00,0.00,180415,,,A*61
$GPRMC,095502.000,A,5907.6895,N,01016.4577,E,0.00,0.00,180415,,,A*62
$GPRMC,095503.000,A,5907.6895,N,01016.4577,E,0.00,0.00,180415,,,A*63
$GPRMC,095504.000,A,5907.6895,N,01016.4577,E,0.00,0.00,180415,,,A*64
$GPRMC,095505.000,A,5907.6895,N,01016.4577,E,0.01,0.00,180415,,,A*64
$GPRMC,095506.000,A,5907.6895,N,01016.4577,E,0.01,0.00,180415,,,A*67
$GPRMC,095507.000,A,5907.6895,N,01016.4577,E,0.00,0.00,180415,,,A*67
$GPRMC,095508.000,A,5907.6895,N,01016.4577,E,0.01,0.00,180415,,,A*69
$GPRMC,095509.000,A,5907.6895,N,01016.4577,E,0.00,0.00,180415,,,A*69
$GPRMC,095510.000,A,5907.6895,N,01016.4577,E,0.00,0.00,180415,,,A*61
$GPRMC,095511.000,A,5907.6895,N,01016.4577,E,0.01,0.00,180415,,,A*61
$GPRMC,095512.000,A,5907.6895,N,01016.4577,E,0.00,0.00,180415,,,A*63
$GPRMC,095513.000,A,5907.6895,N,01016.4577,E,0.13,0.00,180415,,,A*60
$GPRMC,095514.000,A,5907.6895,N,01016.4577,E,0.92,0.00,180415,,,A*6E
$GPRMC,095515.000,A,5907.6893,N,01016.4572,E,1.50,0.00,180415,,,A*63
$GPRMC,095516.000,A,5907.6889,N,01016.4565,E,2.11,228.41,180415,,,A*66
$GPRMC,095517.000,A,5907.6886,N,01016.4555,E,2.46,229.14,180415,,,A*68
$GPRMC,095518.000,A,5907.6882,N,01016.4542,E,2.72,230.53,180415,,,A*69
$GPRMC,095519.000,A,5907.6879,N,01016.4527,E,3.03,232.49,180415,,,A*61
$GPRMC,095520.000,A,5907.6877,N,01016.4510,E,3.28,234.99,180415,,,A*63
$GPRMC,095521.000,A,5907.6875,N,01016.4490,E,4.08,237.83,180415,,,A*64
$GPRMC,095522.000,A,5907.6874,N,01016.4462,E,5.66,240.07,180415,,,A*6E
$GPRMC,095523.000,A,5907.6872,N,01016.4429,E,6.18,242.51,180415,,,A*6D
$GPRMC,095524.000,A,5907.6868,N,01016.4395,E,6.36,253.77,180415,,,A*69
$GPRMC,095525.000,A,5907.6861,N,01016.4359,E,7.48,245.55,180415,,,A*6E
$GPRMC,095526.000,A,5907.6849,N,01016.4322,E,8.29,231.87,180415,,,A*6F
$GPRMC,095527.000,A,5907.6832,N,01016.4291,E,8.66,216.09,180415,,,A*63
$GPRMC,095528.000,A,5907.6810,N,01016.4265,E,9.54,207.37,180415,,,A*6A
$GPRMC,095529.000,A,5907.6786,N,01016.4241,E,10.07,207.37,180415,,,A*53
$GPRMC,095530.000,A,5907.6760,N,01016.4213,E,10.41,209.34,180415,,,A*5B
$GPRMC,095531.000,A,5907.6735,N,01016.4181,E,10.40,209.91,180415,,,A*5C
$GPRMC,095532.000,A,5907.6712,N,01016.4146,E,10.11,210.88,180415,,,A*55
$GPRMC,095533.000,A,5907.6691,N,01016.4108,E,10.15,225.02,180415,,,A*54
$GPRMC,095534.000,A,5907.6670,N,01016.4066,E,10.43,229.97,180415,,,A*56
$GPRMC,095535.000,A,5907.6653,N,01016.4021,E,10.10,233.84,180415,,,A*5A
$GPRMC,095536.000,A,5907.6637,N,01016.3976,E,9.75,237.06,180415,,,A*62

$GPRMC,095537.000,A,5907.6622,N,01016.3929,E,10.37,239.93,180415,,,A*51
$GPRMC,095538.000,A,5907.6609,N,01016.3878,E,10.65,242.28,180415,,,A*59
$GPRMC,095539.000,A,5907.6596,N,01016.3826,E,10.47,244.05,180415,,,A*5F
$GPRMC,095540.000,A,5907.6584,N,01016.3776,E,9.75,245.54,180415,,,A*64

$GPRMC,095541.000,A,5907.6574,N,01016.3728,E,9.12,248.01,180415,,,A*6D

$GPRMC,095542.000,A,5907.6567,N,01016.3682,E,8.80,261.54,180415,,,A*6C

$GPRMC,095543.000,A,5907.6569,N,01016.3635,E,8.56,283.48,180415,,,A*65

$GPRMC,095544.000,A,5907.6580,N,01016.3594,E,8.55,307.17,180415,,,A*69

$GPRMC,095545.000,A,5907.6597,N,01016.3562,E,8.48,324.97,180415,,,A*62

$GPRMC,095546.000,A,5907.6618,N,01016.3541,E,8.31,337.97,180415,,,A*68

$GPRMC,095547.000,A,5907.6640,N,01016.3527,E,8.35,342.33,180415,,,A*6C

$GPRMC,095548.000,A,5907.6663,N,01016.3514,E,8.43,343.81,180415,,,A*6B

$GPRMC,095549.000,A,5907.6686,N,01016.3503,E,8.58,347.30,180415,,,A*63

$GPRMC,095550.000,A,5907.6710,N,01016.3495,E,9.04,350.99,180415,,,A*66

$GPRMC,095551.000,A,5907.6736,N,01016.3490,E,9.22,354.81,180415,,,A*6F

$GPRMC,095552.000,A,5907.6762,N,01016.3489,E,9.16,359.46,180415,,,A*64

$GPRMC,095553.000,A,5907.6788,N,01016.3491,E,8.98,2.87,180415,,,A*6F

$GPRMC,095554.000,A,5907.6813,N,01016.3496,E,8.78,6.38,180415,,,A*6C

$GPRMC,095555.000,A,5907.6837,N,01016.3505,E,8.44,10.50,180415,,,A*56
$GPRMC,095556.000,A,5907.6861,N,01016.3516,E,8.40,13.79,180415,,,A*58
$GPRMC,095557.000,A,5907.6884,N,01016.3529,E,8.42,16.99,180415,,,A*57
$GPRMC,095558.000,A,5907.6906,N,01016.3545,E,8.49,20.79,180415,,,A*59
$GPRMC,095559.000,A,5907.6929,N,01016.3564,E,8.47,22.40,180415,,,A*50
$GPRMC,095600.000,A,5907.6951,N,01016.3583,E,8.31,23.47,180415,,,A*5E
$GPRMC,095601.000,A,5907.6972,N,01016.3601,E,8.25,21.05,180415,,,A*56
$GPRMC,095602.000,A,5907.6994,N,01016.3615,E,8.25,10.78,180415,,,A*50
$GPRMC,095603.000,A,5907.7018,N,01016.3617,E,8.44,356.44,180415,,,A*66
$GPRMC,095604.000,A,5907.7041,N,01016.3611,E,8.00,344.19,180415,,,A*60
$GPRMC,095605.000,A,5907.7061,N,01016.3595,E,7.62,334.10,180415,,,A*69
$GPRMC,095606.000,A,5907.7079,N,01016.3575,E,7.62,329.12,180415,,,A*63
$GPRMC,095607.000,A,5907.7097,N,01016.3552,E,7.59,327.13,180415,,,A*60
$GPRMC,095608.000,A,5907.7114,N,01016.3529,E,7.40,326.45,180415,,,A*63
$GPRMC,095609.000,A,5907.7131,N,01016.3505,E,7.36,326.07,180415,,,A*6C
$GPRMC,095610.000,A,5907.7147,N,01016.3482,E,7.12,325.05,180415,,,A*6C
$GPRMC,095611.000,A,5907.7162,N,01016.3459,E,7.10,324.33,180415,,,D*6F
$GPRMC,095612.000,A,5907.7178,N,01016.3434,E,7.48,322.95,180415,,,D*6B
$GPRMC,095613.000,A,5907.7195,N,01016.3409,E,7.68,323.15,180415,,,D*6C
$GPRMC,095614.000,A,5907.7212,N,01016.3384,E,7.84,323.10,180415,,,D*62
$GPRMC,095615.000,A,5907.7230,N,01016.3357,E,7.89,322.31,180415,,,D*62
$GPRMC,095616.000,A,5907.7248,N,01016.3329,E,8.61,321.83,180415,,,D*64
$GPRMC,095617.000,A,5907.7267,N,01016.3298,E,9.32,321.26,180415,,,D*6B
$GPRMC,095618.000,A,5907.7287,N,01016.3265,E,9.50,320.74,180415,,,D*6A
$GPRMC,095619.000,A,5907.7307,N,01016.3231,E,9.50,319.92,180415,,,D*61
$GPRMC,095620.000,A,5907.7327,N,01016.3197,E,9.30,319.11,180415,,,D*6B
$GPRMC,095621.000,A,5907.7346,N,01016.3163,E,9.07,318.28,180415,,,D*69
$GPRMC,095622.000,A,5907.7364,N,01016.3128,E,9.39,317.64,180415,,,D*6F
$GPRMC,095623.000,A,5907.7383,N,01016.3093,E,9.43,317.32,180415,,,D*68
$GPRMC,095624.000,A,5907.7402,N,01016.3058,E,9.22,317.11,180415,,,D*60
$GPRMC,095625.000,A,5907.7420,N,01016.3024,E,8.96,316.90,180415,,,D*6C
$GPRMC,095626.000,A,5907.7438,N,01016.2989,E,9.41,316.78,180415,,,D*64
$GPRMC,095627.000,A,5907.7457,N,01016.2952,E,9.59,316.75,180415,,,D*6E
$GPRMC,095628.000,A,5907.7476,N,01016.2916,E,9.38,316.86,180415,,,D*69
$GPRMC,095629.000,A,5907.7495,N,01016.2881,E,9.56,317.12,180415,,,D*6E
$GPRMC,095630.000,A,5907.7515,N,01016.2846,E,9.31,317.40,180415,,,D*62
$GPRMC,095631.000,A,5907.7534,N,01016.2812,E,9.24,317.83,180415,,,D*6A
$GPRMC,095632.000,A,5907.7554,N,01016.2778,E,9.74,318.16,180415,,,D*6A
$GPRMC,095633.000,A,5907.7576,N,01016.2743,E,9.82,318.59,180415,,,D*61
$GPRMC,095634.000,A,5907.7597,N,01016.2708,E,9.85,319.24,180415,,,D*6A
$GPRMC,095635.000,A,5907.7619,N,01016.2674,E,9.56,319.79,180415,,,D*62
$GPRMC,095636.000,A,5907.7641,N,01016.2641,E,9.50,320.24,180415,,,D*6E
$GPRMC,095637.000,A,5907.7662,N,01016.2608,E,10.00,320.77,180415,,,D*58
$GPRMC,095638.000,A,5907.7685,N,01016.2574,E,10.58,321.75,180415,,,D*58
$GPRMC,095639.000,A,5907.7709,N,01016.2541,E,10.39,323.37,180415,,,D*59
$GPRMC,095640.000,A,5907.7733,N,01016.2510,E,10.34,325.26,180415,,,D*51
$GPRMC,095641.000,A,5907.7757,N,01016.2481,E,10.33,327.32,180415,,,D*5B
$GPRMC,095642.000,A,5907.7781,N,01016.2455,E,9.94,329.61,180415,,,D*67

$GPRMC,095643.000,A,5907.7805,N,01016.2433,E,9.60,332.01,180415,,,D*62

$GPRMC,095644.000,A,5907.7828,N,01016.2411,E,9.56,334.32,180415,,,D*69

$GPRMC,095645.000,A,5907.7852,N,01016.2391,E,9.57,336.36,180415,,,D*6D

$GPRMC,095646.000,A,5907.7876,N,01016.2372,E,9.83,337.92,180415,,,D*63

$GPRMC,095647.000,A,5907.7901,N,01016.2353,E,9.88,338.99,180415,,,D*6F

$GPRMC,095648.000,A,5907.7926,N,01016.2335,E,9.81,339.87,180415,,,D*62

$GPRMC,095649.000,A,5907.7952,N,01016.2318,E,9.86,340.55,180415,,,D*69

$GPRMC,095650.000,A,5907.7978,N,01016.2300,E,10.11,341.00,180415,,,D*57
$GPRMC,095651.000,A,5907.8004,N,01016.2283,E,9.90,341.30,180415,,,D*63

$GPRMC,095652.000,A,5907.8029,N,01016.2267,E,9.84,341.47,180415,,,D*60

$GPRMC,095653.000,A,5907.8055,N,01016.2250,E,9.59,341.44,180415,,,D*6D

$GPRMC,095654.000,A,5907.8079,N,01016.2234,E,9.23,341.37,180415,,,D*6F

$GPRMC,095655.000,A,5907.8102,N,01016.2218,E,8.70,341.37,180415,,,D*6A

$GPRMC,095656.000,A,5907.8124,N,01016.2204,E,8.17,341.37,180415,,,D*61

$GPRMC,095657.000,A,5907.8145,N,01016.2190,E,8.34,341.60,180415,,,D*6A

$GPRMC,095658.000,A,5907.8167,N,01016.2177,E,8.31,341.85,180415,,,D*62

$GPRMC,095659.000,A,5907.8189,N,01016.2165,E,7.99,343.25,180415,,,D*65

$GPRMC,095700.000,A,5907.8210,N,01016.2161,E,7.56,359.46,180415,,,D*62

$GPRMC,095701.000,A,5907.8230,N,01016.2171,E,7.63,23.22,180415,,,D*5A

$GPRMC,095702.000,A,5907.8247,N,01016.2199,E,8.19,50.65,180415,,,D*5A

$GPRMC,095703.000,A,5907.8257,N,01016.2241,E,8.96,73.87,180415,,,D*56

$GPRMC,095704.000,A,5907.8260,N,01016.2300,E,9.40,88.34,180415,,,D*57

$GPRMC,095705.000,A,5907.8258,N,01016.2357,E,9.71,93.28,180415,,,D*5A

$GPRMC,095706.000,A,5907.8254,N,01016.2413,E,9.77,94.09,180415,,,D*50

$GPRMC,095707.000,A,5907.8251,N,01016.2469,E,9.80,94.77,180415,,,D*58

$GPRMC,095708.000,A,5907.8247,N,01016.2523,E,9.77,95.43,180415,,,D*51

$GPRMC,095711.000,A,5907.8238,N,01016.2681,E,9.67,95.67,180415,,,D*5D

$GPRMC,095712.000,A,5907.8234,N,01016.2736,E,10.02,95.89,180415,,,D*64
$GPRMC,095713.000,A,5907.8231,N,01016.2791,E,10.25,96.61,180415,,,D*6D
$GPRMC,095714.000,A,5907.8227,N,01016.2844,E,9.68,97.48,180415,,,D*51

$GPRMC,095715.000,A,5907.8223,N,01016.2894,E,9.08,97.82,180415,,,D*59

$GPRMC,095716.000,A,5907.8219,N,01016.2942,E,9.07,98.30,180415,,,D*50

$GPRMC,095717.000,A,5907.8215,N,01016.2990,E,8.78,98.57,180415,,,D*5A

$GPRMC,095718.000,A,5907.8212,N,01016.3037,E,8.85,98.36,180415,,,D*52

$GPRMC,095719.000,A,5907.8209,N,01016.3086,E,9.21,98.11,180415,,,D*59

$GPRMC,095720.000,A,5907.8205,N,01016.3136,E,9.27,98.26,180415,,,D*57

$GPRMC,095721.000,A,5907.8201,N,01016.3185,E,9.31,98.64,180415,,,D*5B

$GPRMC,095724.000,A,5907.8188,N,01016.3334,E,9.21,99.35,180415,,,D*50

$GPRMC,095728.000,A,5907.8170,N,01016.3528,E,9.16,100.45,180415,,,D*62
$GPRMC,095732.000,A,5907.8146,N,01016.3719,E,9.00,104.73,180415,,,D*6A
$GPRMC,095733.000,A,5907.8139,N,01016.3764,E,8.81,105.27,180415,,,D*61
$GPRMC,095734.000,A,5907.8133,N,01016.3810,E,8.64,104.96,180415,,,D*60
$GPRMC,095735.000,A,5907.8129,N,01016.3854,E,8.46,103.84,180415,,,D*6E
$GPRMC,095736.000,A,5907.8125,N,01016.3900,E,8.23,101.96,180415,,,D*63
$GPRMC,095737.000,A,5907.8122,N,01016.3944,E,8.19,101.00,180415,,,D*63
$GPRMC,095738.000,A,5907.8121,N,01016.3989,E,8.38,88.09,180415,,,D*54

$GPRMC,095739.000,A,5907.8124,N,01016.4035,E,8.41,78.10,180415,,,D*50

$GPRMC,095740.000,A,5907.8131,N,01016.4076,E,8.01,65.48,180415,,,D*58

$GPRMC,095741.000,A,5907.8143,N,01016.4112,E,7.78,51.71,180415,,,D*53

$GPRMC,095742.000,A,5907.8160,N,01016.4141,E,7.77,36.40,180415,,,D*5B

$GPRMC,095743.000,A,5907.8179,N,01016.4160,E,7.82,21.14,180415,,,D*5C

$GPRMC,095744.000,A,5907.8201,N,01016.4170,E,7.90,8.46,180415,,,D*69

$GPRMC,095745.000,A,5907.8224,N,01016.4169,E,7.97,354.59,180415,,,D*64
$GPRMC,095746.000,A,5907.8246,N,01016.4159,E,7.57,340.36,180415,,,D*60
$GPRMC,095747.000,A,5907.8264,N,01016.4139,E,7.22,327.17,180415,,,D*67
$GPRMC,095748.000,A,5907.8280,N,01016.4113,E,7.29,318.25,180415,,,D*6C
$GPRMC,095749.000,A,5907.8296,N,01016.4084,E,7.74,317.19,180415,,,D*6D
$GPRMC,095750.000,A,5907.8312,N,01016.4052,E,8.29,317.39,180415,,,D*66
$GPRMC,095751.000,A,5907.8329,N,01016.4020,E,8.36,316.87,180415,,,D*60
$GPRMC,095752.000,A,5907.8346,N,01016.3987,E,8.11,316.54,180415,,,D*62
$GPRMC,095753.000,A,5907.8363,N,01016.3954,E,8.50,317.54,180415,,,D*6E
$GPRMC,095754.000,A,5907.8382,N,01016.3921,E,9.09,319.68,180415,,,D*68
$GPRMC,095755.000,A,5907.8402,N,01016.3890,E,9.03,320.87,180415,,,D*6C
$GPRMC,095756.000,A,5907.8422,N,01016.3861,E,8.62,323.38,180415,,,D*62
$GPRMC,095757.000,A,5907.8442,N,01016.3834,E,8.58,325.50,180415,,,D*64
$GPRMC,095758.000,A,5907.8462,N,01016.3808,E,8.64,327.03,180415,,,D*6D
$GPRMC,095759.000,A,5907.8482,N,01016.3782,E,8.69,328.03,180415,,,D*6D
$GPRMC,095800.000,A,5907.8503,N,01016.3756,E,8.62,328.77,180415,,,D*67
$GPRMC,095801.000,A,5907.8523,N,01016.3732,E,8.65,329.75,180415,,,D*62
$GPRMC,095802.000,A,5907.8544,N,01016.3708,E,8.95,330.57,180415,,,D*6E
$GPRMC,095803.000,A,5907.8566,N,01016.3684,E,8.78,330.86,180415,,,D*65
$GPRMC,095804.000,A,5907.8586,N,01016.3660,E,8.48,330.24,180415,,,D*6D
$GPRMC,095805.000,A,5907.8606,N,01016.3635,E,8.27,328.72,180415,,,D*64
$GPRMC,095806.000,A,5907.8625,N,01016.3607,E,8.31,326.42,180415,,,D*6D
$GPRMC,095807.000,A,5907.8644,N,01016.3578,E,8.26,325.24,180415,,,D*65
$GPRMC,095808.000,A,5907.8661,N,01016.3547,E,7.83,315.06,180415,,,D*62
$GPRMC,095809.000,A,5907.8675,N,01016.3514,E,8.01,307.82,180415,,,D*6A
$GPRMC,095810.000,A,5907.8688,N,01016.3476,E,8.31,299.14,180415,,,D*6F
$GPRMC,095811.000,A,5907.8697,N,01016.3433,E,8.65,290.40,180415,,,D*68
$GPRMC,095812.000,A,5907.8704,N,01016.3386,E,9.18,284.73,180415,,,D*67
$GPRMC,095813.000,A,5907.8711,N,01016.3335,E,9.52,284.55,180415,,,D*60
$GPRMC,095814.000,A,5907.8717,N,01016.3284,E,9.56,286.38,180415,,,D*67
$GPRMC,095815.000,A,5907.8725,N,01016.3235,E,9.50,292.43,180415,,,D*62
$GPRMC,095816.000,A,5907.8736,N,01016.3189,E,9.09,298.17,180415,,,D*60
$GPRMC,095817.000,A,5907.8748,N,01016.3148,E,8.67,303.63,180415,,,D*6C
$GPRMC,095818.000,A,5907.8761,N,01016.3109,E,8.39,307.95,180415,,,D*6B
$GPRMC,095819.000,A,5907.8776,N,01016.3073,E,8.59,311.66,180415,,,D*6D
$GPRMC,095820.000,A,5907.8793,N,01016.3038,E,8.93,312.63,180415,,,D*63
$GPRMC,095821.000,A,5907.8810,N,01016.3003,E,8.92,312.91,180415,,,D*62
$GPRMC,095822.000,A,5907.8827,N,01016.2968,E,8.65,313.32,180415,,,D*60
$GPRMC,095823.000,A,5907.8843,N,01016.2934,E,8.61,313.71,180415,,,D*69
$GPRMC,095824.000,A,5907.8860,N,01016.2900,E,8.77,314.09,180415,,,D*67
$GPRMC,095825.000,A,5907.8878,N,01016.2865,E,9.06,314.36,180415,,,D*66
$GPRMC,095826.000,A,5907.8896,N,01016.2830,E,8.70,314.17,180415,,,D*66
$GPRMC,095827.000,A,5907.8913,N,01016.2795,E,8.93,313.74,180415,,,D*64
$GPRMC,095828.000,A,5907.8930,N,01016.2759,E,9.28,313.19,180415,,,D*60
$GPRMC,095829.000,A,5907.8948,N,01016.2722,E,9.07,312.74,180415,,,D*65
$GPRMC,095830.000,A,5907.8965,N,01016.2686,E,9.05,312.26,180415,,,D*68
$GPRMC,095831.000,A,5907.8982,N,01016.2648,E,9.82,312.08,180415,,,D*61
$GPRMC,095832.000,A,5907.9001,N,01016.2608,E,9.86,312.23,180415,,,D*68
$GPRMC,095833.000,A,5907.9019,N,01016.2569,E,9.59,312.68,180415,,,D*69
$GPRMC,095834.000,A,5907.9037,N,01016.2532,E,9.22,313.14,180415,,,D*6A
$GPRMC,095835.000,A,5907.9055,N,01016.2496,E,8.99,313.60,180415,,,D*62
$GPRMC,095836.000,A,5907.9072,N,01016.2462,E,8.63,314.07,180415,,,D*6C
$GPRMC,095837.000,A,5907.9089,N,01016.2429,E,8.33,314.47,180415,,,D*67
$GPRMC,095838.000,A,5907.9106,N,01016.2396,E,8.53,314.63,180415,,,D*6D
$GPRMC,095839.000,A,5907.9121,N,01016.2364,E,8.12,314.54,180415,,,D*65
$GPRMC,095840.000,A,5907.9137,N,01016.2335,E,7.69,314.67,180415,,,D*6B
$GPRMC,095841.000,A,5907.9152,N,01016.2305,E,7.75,314.13,180415,,,D*64
$GPRMC,095842.000,A,5907.9165,N,01016.2271,E,8.09,303.38,180415,,,D*6A
$GPRMC,095843.000,A,5907.9175,N,01016.2232,E,8.26,289.56,180415,,,D*6B
$GPRMC,095844.000,A,5907.9179,N,01016.2189,E,8.18,276.47,180415,,,D*6E
$GPRMC,095845.000,A,5907.9179,N,01016.2146,E,7.93,264.59,180415,,,D*6C
$GPRMC,095846.000,A,5907.9174,N,01016.2104,E,7.95,252.53,180415,,,D*6D
$GPRMC,095847.000,A,5907.9164,N,01016.2064,E,8.33,242.57,180415,,,D*6C
$GPRMC,095848.000,A,5907.9151,N,01016.2026,E,8.36,236.82,180415,,,D*6D
$GPRMC,095849.000,A,5907.9137,N,01016.1989,E,8.42,235.63,180415,,,D*6C
$GPRMC,095850.000,A,5907.9123,N,01016.1952,E,8.62,234.06,180415,,,D*67
$GPRMC,095853.000,A,5907.9076,N,01016.1839,E,8.63,231.09,180415,,,D*62
$GPRMC,095857.000,A,5907.9009,N,01016.1713,E,9.08,216.26,180415,,,D*6D
$GPRMC,095901.000,A,5907.8922,N,01016.1618,E,8.73,207.31,180415,,,D*6F
$GPRMC,095902.000,A,5907.8900,N,01016.1598,E,8.69,207.36,180415,,,D*6B
$GPRMC,095903.000,A,5907.8878,N,01016.1578,E,8.66,207.96,180415,,,D*6F
$GPRMC,095904.000,A,5907.8857,N,01016.1557,E,8.70,207.83,180415,,,D*6B
$GPRMC,095905.000,A,5907.8836,N,01016.1535,E,8.37,210.13,180415,,,D*65
$GPRMC,095906.000,A,5907.8816,N,01016.1511,E,8.44,210.73,180415,,,D*60
$GPRMC,095907.000,A,5907.8797,N,01016.1488,E,8.23,212.21,180415,,,D*62
$GPRMC,095908.000,A,5907.8777,N,01016.1466,E,7.71,213.49,180415,,,D*64
$GPRMC,095909.000,A,5907.8759,N,01016.1446,E,7.26,214.44,180415,,,D*63
$GPRMC,095910.000,A,5907.8742,N,01016.1425,E,6.78,214.87,180415,,,D*61
$GPRMC,095911.000,A,5907.8727,N,01016.1406,E,6.20,215.05,180415,,,D*64
$GPRMC,095912.000,A,5907.8714,N,01016.1389,E,5.24,216.79,180415,,,D*68
$GPRMC,095913.000,A,5907.8704,N,01016.1371,E,4.43,229.82,180415,,,D*67
$GPRMC,095914.000,A,5907.8698,N,01016.1352,E,4.13,246.05,180415,,,D*66
$GPRMC,095915.000,A,5907.8696,N,01016.1328,E,4.88,270.54,180415,,,D*67
$GPRMC,095916.000,A,5907.8700,N,01016.1301,E,5.49,291.90,180415,,,D*6A
$GPRMC,095917.000,A,5907.8707,N,01016.1272,E,6.04,301.55,180415,,,D*62
$GPRMC,095918.000,A,5907.8718,N,01016.1240,E,7.12,303.47,180415,,,D*65
$GPRMC,095919.000,A,5907.8730,N,01016.1206,E,7.39,303.74,180415,,,D*65
$GPRMC,095920.000,A,5907.8742,N,01016.1172,E,6.96,304.03,180415,,,D*69
$GPRMC,095921.000,A,5907.8754,N,01016.1137,E,8.00,304.85,180415,,,D*61
$GPRMC,095922.000,A,5907.8768,N,01016.1098,E,8.68,304.93,180415,,,D*60
$GPRMC,095923.000,A,5907.8783,N,01016.1058,E,8.75,305.73,180415,,,D*6B
$GPRMC,095924.000,A,5907.8798,N,01016.1018,E,9.28,306.32,180415,,,D*6D
$GPRMC,095925.000,A,5907.8814,N,01016.0976,E,9.66,306.53,180415,,,D*6A
$GPRMC,095926.000,A,5907.8831,N,01016.0933,E,9.64,306.75,180415,,,D*69
$GPRMC,095927.000,A,5907.8847,N,01016.0891,E,9.28,307.06,180415,,,D*6D
$GPRMC,095928.000,A,5907.8863,N,01016.0850,E,9.32,307.23,180415,,,D*65
$GPRMC,095929.000,A,5907.8879,N,01016.0808,E,9.38,307.15,180415,,,D*6D
$GPRMC,095930.000,A,5907.8895,N,01016.0768,E,9.06,307.13,180415,,,D*65
$GPRMC,095931.000,A,5907.8910,N,01016.0728,E,8.74,306.68,180415,,,D*65
$GPRMC,095932.000,A,5907.8923,N,01016.0691,E,7.81,304.53,180415,,,D*6A
$GPRMC,095933.000,A,5907.8933,N,01016.0655,E,6.74,291.86,180415,,,D*6C
$GPRMC,095934.000,A,5907.8936,N,01016.0620,E,6.23,269.02,180415,,,D*65
$GPRMC,095935.000,A,5907.8931,N,01016.0588,E,6.42,242.78,180415,,,D*61
$GPRMC,095936.000,A,5907.8919,N,01016.0559,E,7.12,223.16,180415,,,D*6F
$GPRMC,095937.000,A,5907.8902,N,01016.0534,E,7.57,218.46,180415,,,D*63
$GPRMC,095938.000,A,5907.8885,N,01016.0508,E,7.79,218.20,180415,,,D*61
$GPRMC,095939.000,A,5907.8865,N,01016.0485,E,7.82,217.30,180415,,,D*60
$GPRMC,095940.000,A,5907.8847,N,01016.0462,E,7.80,216.38,180415,,,D*6C
$GPRMC,095941.000,A,5907.8829,N,01016.0439,E,8.07,217.80,180415,,,D*69
$GPRMC,095942.000,A,5907.8812,N,01016.0413,E,8.11,220.07,180415,,,D*66
$GPRMC,095943.000,A,5907.8795,N,01016.0384,E,8.03,220.65,180415,,,D*69
$GPRMC,095944.000,A,5907.8781,N,01016.0353,E,7.64,233.34,180415,,,D*69
$GPRMC,095945.000,A,5907.8769,N,01016.0318,E,7.71,240.04,180415,,,D*62
$GPRMC,095946.000,A,5907.8760,N,01016.0280,E,7.99,246.84,180415,,,D*60
$GPRMC,095947.000,A,5907.8752,N,01016.0239,E,8.04,251.48,180415,,,D*6F
$GPRMC,095948.000,A,5907.8745,N,01016.0198,E,7.84,252.71,180415,,,D*60
$GPRMC,095949.000,A,5907.8740,N,01016.0159,E,7.20,252.93,180415,,,D*6B
$GPRMC,095950.000,A,5907.8734,N,01016.0123,E,6.69,252.66,180415,,,D*6B
$GPRMC,095951.000,A,5907.8729,N,01016.0089,E,6.33,252.00,180415,,,D*68
$GPRMC,095952.000,A,5907.8724,N,01016.0057,E,6.36,252.53,180415,,,D*66
$GPRMC,095953.000,A,5907.8719,N,01016.0023,E,6.58,252.62,180415,,,D*60
$GPRMC,095954.000,A,5907.8714,N,01015.9989,E,6.57,252.83,180415,,,D*69
$GPRMC,095955.000,A,5907.8709,N,01015.9955,E,6.79,252.67,180415,,,D*63
$GPRMC,095956.000,A,5907.8703,N,01015.9919,E,7.30,252.01,180415,,,D*6E
$GPRMC,095957.000,A,5907.8696,N,01015.9881,E,7.70,250.47,180415,,,D*66
$GPRMC,095958.000,A,5907.8688,N,01015.9842,E,7.54,248.58,180415,,,D*68
$GPRMC,095959.000,A,5907.8679,N,01015.9806,E,7.16,246.19,180415,,,D*6A
$GPRMC,100000.000,A,5907.8670,N,01015.9771,E,7.16,243.49,180415,,,D*64
$GPRMC,100001.000,A,5907.8660,N,01015.9738,E,7.33,242.07,180415,,,D*65
$GPRMC,100002.000,A,5907.8648,N,01015.9705,E,7.39,231.06,180415,,,D*6D
$GPRMC,100003.000,A,5907.8634,N,01015.9676,E,7.42,224.79,180415,,,D*62
$GPRMC,100007.000,A,5907.8567,N,01015.9588,E,7.57,208.32,180415,,,D*64
$GPRMC,100014.000,A,5907.8424,N,01015.9468,E,8.74,205.07,180415,,,D*6A
$GPRMC,100015.000,A,5907.8402,N,01015.9448,E,8.75,205.69,180415,,,D*64
$GPRMC,100016.000,A,5907.8380,N,01015.9427,E,8.74,206.01,180415,,,D*6F
$GPRMC,100017.000,A,5907.8358,N,01015.9405,E,8.72,206.64,180415,,,D*6E
$GPRMC,100018.000,A,5907.8337,N,01015.9385,E,8.36,207.57,180415,,,D*66
$GPRMC,100019.000,A,5907.8317,N,01015.9365,E,7.86,208.29,180415,,,D*69
$GPRMC,100020.000,A,5907.8300,N,01015.9345,E,7.26,209.29,180415,,,D*6C
$GPRMC,100021.000,A,5907.8283,N,01015.9325,E,7.04,210.02,180415,,,D*60
$GPRMC,100022.000,A,5907.8266,N,01015.9305,E,7.09,210.83,180415,,,D*6E
$GPRMC,100023.000,A,5907.8248,N,01015.9283,E,7.71,211.74,180415,,,D*6A
$GPRMC,100024.000,A,5907.8230,N,01015.9260,E,8.06,212.96,180415,,,D*6F
$GPRMC,100025.000,A,5907.8212,N,01015.9235,E,8.08,214.45,180415,,,D*68
$GPRMC,100026.000,A,5907.8194,N,01015.9206,E,8.37,222.17,180415,,,D*68
$GPRMC,100027.000,A,5907.8177,N,01015.9174,E,8.39,228.23,180415,,,D*61
$GPRMC,100028.000,A,5907.8163,N,01015.9138,E,8.37,234.92,180415,,,D*6A
$GPRMC,100029.000,A,5907.8151,N,01015.9097,E,8.54,242.93,180415,,,D*6B
$GPRMC,100030.000,A,5907.8142,N,01015.9055,E,8.51,249.03,180415,,,D*68
$GPRMC,100031.000,A,5907.8135,N,01015.9011,E,8.46,252.96,180415,,,D*69
$GPRMC,100032.000,A,5907.8129,N,01015.8966,E,8.39,258.52,180415,,,D*65
$GPRMC,100033.000,A,5907.8125,N,01015.8922,E,8.16,261.60,180415,,,D*6E
$GPRMC,100034.000,A,5907.8123,N,01015.8878,E,7.72,264.02,180415,,,D*6D
$GPRMC,100035.000,A,5907.8123,N,01015.8838,E,6.80,266.66,180415,,,D*64
$GPRMC,100036.000,A,5907.8123,N,01015.8803,E,5.72,273.29,180415,,,D*6E
$GPRMC,100037.000,A,5907.8125,N,01015.8775,E,4.69,285.75,180415,,,D*6C
$GPRMC,100038.000,A,5907.8130,N,01015.8752,E,4.62,296.11,180415,,,D*69
$GPRMC,100039.000,A,5907.8138,N,01015.8732,E,4.59,317.45,180415,,,D*67
$GPRMC,100040.000,A,5907.8148,N,01015.8719,E,4.53,333.26,180415,,,D*6E
$GPRMC,100041.000,A,5907.8163,N,01015.8713,E,5.43,351.67,180415,,,D*6D
$GPRMC,100042.000,A,5907.8181,N,01015.8710,E,6.56,351.42,180415,,,D*61
$GPRMC,100043.000,A,5907.8200,N,01015.8704,E,6.26,351.80,180415,,,D*66
$GPRMC,100044.000,A,5907.8219,N,01015.8700,E,7.05,351.44,180415,,,D*65
$GPRMC,100045.000,A,5907.8239,N,01015.8695,E,7.24,351.39,180415,,,D*62
$GPRMC,100052.000,A,5907.8383,N,01015.8661,E,8.06,354.69,180415,,,D*60
$GPRMC,100053.000,A,5907.8405,N,01015.8659,E,7.98,356.17,180415,,,D*60
$GPRMC,100054.000,A,5907.8428,N,01015.8657,E,7.94,357.53,180415,,,D*6B
$GPRMC,100055.000,A,5907.8450,N,01015.8657,E,7.90,358.28,180415,,,D*62
$GPRMC,100056.000,A,5907.8472,N,01015.8655,E,7.69,358.53,180415,,,D*69
$GPRMC,100057.000,A,5907.8494,N,01015.8654,E,7.48,358.62,180415,,,D*60
$GPRMC,100058.000,A,5907.8514,N,01015.8653,E,7.32,358.52,180415,,,D*6F
$GPRMC,100059.000,A,5907.8535,N,01015.8652,E,7.48,358.27,180415,,,D*63
$GPRMC,100100.000,A,5907.8556,N,01015.8651,E,7.93,358.17,180415,,,D*6D
$GPRMC,100101.000,A,5907.8579,N,01015.8651,E,8.49,358.19,180415,,,D*67
$GPRMC,100102.000,A,5907.8603,N,01015.8650,E,8.55,358.32,180415,,,D*6F
$GPRMC,100103.000,A,5907.8627,N,01015.8649,E,8.58,358.82,180415,,,D*66
$GPRMC,100104.000,A,5907.8651,N,01015.8650,E,8.64,0.87,180415,,,D*6C

$GPRMC,100105.000,A,5907.8676,N,01015.8651,E,8.86,1.30,180415,,,D*68

$GPRMC,100106.000,A,5907.8701,N,01015.8653,E,8.91,2.21,180415,,,D*6D

$GPRMC,100107.000,A,5907.8727,N,01015.8655,E,9.13,3.00,180415,,,D*67

$GPRMC,100108.000,A,5907.8752,N,01015.8658,E,9.18,3.23,180415,,,D*6D

$GPRMC,100109.000,A,5907.8778,N,01015.8662,E,9.21,3.71,180415,,,D*60

$GPRMC,100110.000,A,5907.8804,N,01015.8666,E,9.21,4.34,180415,,,D*6E

$GPRMC,100111.000,A,5907.8830,N,01015.8671,E,9.05,4.69,180415,,,D*60

$GPRMC,100112.000,A,5907.8856,N,01015.8676,E,9.22,5.14,180415,,,D*6A

$GPRMC,100113.000,A,5907.8883,N,01015.8682,E,9.46,5.73,180415,,,D*6B

$GPRMC,100114.000,A,5907.8910,N,01015.8687,E,9.63,6.57,180415,,,D*60

$GPRMC,100115.000,A,5907.8936,N,01015.8696,E,9.69,7.47,180415,,,D*6F

$GPRMC,100116.000,A,5907.8963,N,01015.8705,E,9.76,8.54,180415,,,D*64

$GPRMC,100117.000,A,5907.8990,N,01015.8716,E,10.13,10.14,180415,,,D*6D
$GPRMC,100118.000,A,5907.9018,N,01015.8728,E,10.11,11.80,180415,,,D*69
$GPRMC,100121.000,A,5907.9098,N,01015.8772,E,9.60,16.25,180415,,,D*52

$GPRMC,100122.000,A,5907.9122,N,01015.8788,E,8.88,17.34,180415,,,D*52

$GPRMC,100123.000,A,5907.9145,N,01015.8803,E,8.48,18.12,180415,,,D*59

$GPRMC,100124.000,A,5907.9168,N,01015.8818,E,8.77,18.34,180415,,,D*53

$GPRMC,100125.000,A,5907.9192,N,01015.8832,E,9.16,18.08,180415,,,D*56

$GPRMC,100126.000,A,5907.9217,N,01015.8848,E,9.57,17.58,180415,,,D*59

$GPRMC,100127.000,A,5907.9243,N,01015.8864,E,9.77,17.33,180415,,,D*58

$GPRMC,100128.000,A,5907.9269,N,01015.8880,E,9.77,17.55,180415,,,D*55

$GPRMC,100129.000,A,5907.9295,N,01015.8898,E,9.77,18.02,180415,,,D*53

$GPRMC,100130.000,A,5907.9320,N,01015.8915,E,9.72,18.62,180415,,,D*53

$GPRMC,100131.000,A,5907.9345,N,01015.8933,E,9.56,19.40,180415,,,D*52

$GPRMC,100132.000,A,5907.9370,N,01015.8952,E,9.33,20.35,180415,,,D*5B

$GPRMC,100133.000,A,5907.9393,N,01015.8970,E,8.69,21.67,180415,,,D*5F

$GPRMC,100134.000,A,5907.9415,N,01015.8990,E,8.38,23.07,180415,,,D*5F

$GPRMC,100135.000,A,5907.9434,N,01015.9008,E,7.51,24.73,180415,,,D*50

$GPRMC,100136.000,A,5907.9452,N,01015.9027,E,7.03,26.77,180415,,,D*5F

$GPRMC,100137.000,A,5907.9468,N,01015.9046,E,6.53,27.95,180415,,,D*59

$GPRMC,100138.000,A,5907.9481,N,01015.9067,E,6.02,42.60,180415,,,D*5F

$GPRMC,100139.000,A,5907.9491,N,01015.9092,E,5.95,61.10,180415,,,D*5E

$GPRMC,100140.000,A,5907.9495,N,01015.9122,E,5.95,83.74,180415,,,D*50

$GPRMC,100141.000,A,5907.9493,N,01015.9158,E,7.41,103.21,180415,,,D*68
$GPRMC,100142.000,A,5907.9484,N,01015.9198,E,8.61,118.10,180415,,,D*64
$GPRMC,100143.000,A,5907.9466,N,01015.9242,E,9.49,123.66,180415,,,D*6F
$GPRMC,100144.000,A,5907.9449,N,01015.9287,E,9.45,123.60,180415,,,D*66
$GPRMC,100145.000,A,5907.9433,N,01015.9329,E,9.40,123.59,180415,,,D*60
$GPRMC,100146.000,A,5907.9417,N,01015.9369,E,8.83,123.73,180415,,,D*67
$GPRMC,100147.000,A,5907.9402,N,01015.9406,E,8.04,123.76,180415,,,D*66
$GPRMC,100148.000,A,5907.9389,N,01015.9440,E,7.66,123.57,180415,,,D*67
$GPRMC,100149.000,A,5907.9377,N,01015.9474,E,7.66,123.46,180415,,,D*60
$GPRMC,100150.000,A,5907.9365,N,01015.9508,E,7.29,123.09,180415,,,D*61
$GPRMC,100151.000,A,5907.9354,N,01015.9539,E,6.80,122.78,180415,,,D*65
$GPRMC,100154.000,A,5907.9334,N,01015.9638,E,6.76,88.38,180415,,,D*58

$GPRMC,100155.000,A,5907.9338,N,01015.9673,E,6.54,71.75,180415,,,D*55

$GPRMC,100156.000,A,5907.9346,N,01015.9706,E,7.00,60.40,180415,,,D*5A

$GPRMC,100157.000,A,5907.9357,N,01015.9742,E,7.86,59.58,180415,,,D*56

$GPRMC,100158.000,A,5907.9368,N,01015.9779,E,7.81,59.70,180415,,,D*50

$GPRMC,100159.000,A,5907.9380,N,01015.9816,E,7.83,59.40,180415,,,D*50

$GPRMC,100200.000,A,5907.9391,N,01015.9854,E,7.89,60.63,180415,,,D*58

$GPRMC,100201.000,A,5907.9402,N,01015.9893,E,8.09,63.15,180415,,,D*5A

$GPRMC,100202.000,A,5907.9412,N,01015.9933,E,8.43,65.11,180415,,,D*5F

$GPRMC,100203.000,A,5907.9423,N,01015.9976,E,8.64,65.67,180415,,,D*59

$GPRMC,100204.000,A,5907.9434,N,01016.0020,E,8.96,65.92,180415,,,D*5F

$GPRMC,100205.000,A,5907.9445,N,01016.0063,E,8.70,66.58,180415,,,D*52

$GPRMC,100209.000,A,5907.9467,N,01016.0235,E,8.39,81.51,180415,,,D*52

$GPRMC,100210.000,A,5907.9470,N,01016.0282,E,8.91,82.71,180415,,,D*53

$GPRMC,100211.000,A,5907.9473,N,01016.0331,E,9.12,83.77,180415,,,D*55

$GPRMC,100212.000,A,5907.9475,N,01016.0379,E,9.09,83.32,180415,,,D*57

$GPRMC,100215.000,A,5907.9484,N,01016.0528,E,9.30,81.64,180415,,,A*52

$GPRMC,100216.000,A,5907.9491,N,01016.0576,E,9.57,79.71,180415,,,A*5C

$GPRMC,100217.000,A,5907.9497,N,01016.0626,E,9.61,78.83,180415,,,A*54

$GPRMC,100218.000,A,5907.9504,N,01016.0676,E,9.64,77.91,180415,,,A*5C

$GPRMC,100219.000,A,5907.9515,N,01016.0723,E,9.62,76.84,180415,,,A*5F

$GPRMC,100220.000,A,5907.9526,N,01016.0771,E,9.56,75.94,180415,,,A*57

$GPRMC,100223.000,A,5907.9565,N,01016.0900,E,8.70,71.85,180415,,,A*5A

$GPRMC,100224.000,A,5907.9579,N,01016.0939,E,8.72,70.35,180415,,,A*52

$GPRMC,100227.000,A,5907.9626,N,01016.1059,E,9.35,65.69,180415,,,A*59

$GPRMC,100231.000,A,5907.9704,N,01016.1213,E,10.76,34.82,180415,,,A*6D
$GPRMC,100235.000,A,5907.9804,N,01016.1270,E,9.26,354.63,180415,,,A*64
$GPRMC,100239.000,A,5907.9902,N,01016.1199,E,9.70,335.78,180415,,,A*65
$GPRMC,100240.000,A,5907.9926,N,01016.1176,E,9.65,336.31,180415,,,A*66
$GPRMC,100243.000,A,5908.0001,N,01016.1124,E,9.72,349.29,180415,,,A*6F
$GPRMC,100247.000,A,5908.0101,N,01016.1115,E,8.48,2.27,180415,,,A*62

$GPRMC,100248.000,A,5908.0124,N,01016.1117,E,7.60,3.91,180415,,,A*61

$GPRMC,100249.000,A,5908.0145,N,01016.1120,E,7.29,5.39,180415,,,A*6A

$GPRMC,100250.000,A,5908.0166,N,01016.1125,E,8.28,7.59,180415,,,A*6C

$GPRMC,100251.000,A,5908.0191,N,01016.1132,E,9.52,10.33,180415,,,A*55
$GPRMC,100258.000,A,5908.0391,N,01016.1215,E,10.88,7.42,180415,,,A*57
$GPRMC,100259.000,A,5908.0421,N,01016.1223,E,11.08,7.32,180415,,,A*51
$GPRMC,100300.000,A,5908.0452,N,01016.1231,E,11.13,5.68,180415,,,A*5C
$GPRMC,100301.000,A,5908.0483,N,01016.1238,E,11.15,5.69,180415,,,A*5F
$GPRMC,100302.000,A,5908.0514,N,01016.1245,E,11.07,5.78,180415,,,A*5A
$GPRMC,100303.000,A,5908.0544,N,01016.1251,E,10.67,5.95,180415,,,A*5F
$GPRMC,100304.000,A,5908.0573,N,01016.1258,E,10.71,6.09,180415,,,A*54
$GPRMC,100305.000,A,5908.0604,N,01016.1265,E,11.11,6.31,180415,,,A*54
$GPRMC,100306.000,A,5908.0635,N,01016.1272,E,11.46,6.95,180415,,,A*5F
$GPRMC,100309.000,A,5908.0731,N,01016.1303,E,11.68,10.30,180415,,,A*66
$GPRMC,100313.000,A,5908.0854,N,01016.1372,E,11.02,18.97,180415,,,A*6E
$GPRMC,100314.000,A,5908.0882,N,01016.1393,E,10.53,20.83,180415,,,A*66
$GPRMC,100315.000,A,5908.0909,N,01016.1414,E,10.47,22.15,180415,,,A*65
$GPRMC,100316.000,A,5908.0935,N,01016.1435,E,10.40,22.72,180415,,,A*6C
$GPRMC,100317.000,A,5908.0963,N,01016.1456,E,11.33,22.42,180415,,,A*6D
$GPRMC,100318.000,A,5908.0990,N,01016.1479,E,10.24,22.84,180415,,,A*6E
$GPRMC,100319.000,A,5908.1016,N,01016.1500,E,10.20,23.07,180415,,,A*68
$GPRMC,100320.000,A,5908.1042,N,01016.1522,E,10.26,23.18,180415,,,A*6B
$GPRMC,100321.000,A,5908.1068,N,01016.1546,E,10.28,23.39,180415,,,A*6D
$GPRMC,100322.000,A,5908.1094,N,01016.1569,E,10.21,23.64,180415,,,A*61
$GPRMC,100323.000,A,5908.1119,N,01016.1593,E,9.99,23.65,180415,,,A*5B

$GPRMC,100324.000,A,5908.1143,N,01016.1616,E,9.68,23.85,180415,,,A*5D

$GPRMC,100325.000,A,5908.1167,N,01016.1638,E,9.13,24.30,180415,,,A*53

$GPRMC,100326.000,A,5908.1189,N,01016.1658,E,9.06,24.67,180415,,,A*50

$GPRMC,100327.000,A,5908.1212,N,01016.1679,E,9.38,25.37,180415,,,A*5A

$GPRMC,100328.000,A,5908.1235,N,01016.1703,E,9.73,26.39,180415,,,A*5E

$GPRMC,100329.000,A,5908.1259,N,01016.1728,E,9.55,27.57,180415,,,A*51

$GPRMC,100330.000,A,5908.1282,N,01016.1753,E,9.54,28.68,180415,,,A*51

$GPRMC,100331.000,A,5908.1305,N,01016.1779,E,10.25,29.85,180415,,,A*6A
$GPRMC,100332.000,A,5908.1330,N,01016.1808,E,10.66,30.61,180415,,,A*63
$GPRMC,100336.000,A,5908.1427,N,01016.1920,E,9.91,31.73,180415,,,A*5F

$GPRMC,100339.000,A,5908.1500,N,01016.2005,E,10.39,30.45,180415,,,A*67
$GPRMC,100340.000,A,5908.1526,N,01016.2030,E,10.37,28.46,180415,,,A*6F
$GPRMC,100341.000,A,5908.1552,N,01016.2052,E,10.40,27.41,180415,,,A*61
$GPRMC,100348.000,A,5908.1745,N,01016.2146,E,10.28,20.08,180415,,,A*6C
$GPRMC,100349.000,A,5908.1773,N,01016.2149,E,9.84,18.49,180415,,,A*57

$GPRMC,100350.000,A,5908.1799,N,01016.2148,E,9.62,358.85,180415,,,A*65
$GPRMC,100351.000,A,5908.1826,N,01016.2145,E,9.57,357.81,180415,,,A*6F
$GPRMC,100352.000,A,5908.1853,N,01016.2138,E,10.25,357.24,180415,,,A*56
$GPRMC,100359.000,A,5908.2038,N,01016.2114,E,6.43,0.34,180415,,,A*62

$GPRMC,100400.000,A,5908.2059,N,01016.2113,E,7.81,359.88,180415,,,A*6E

$GPRMC,100401.000,A,5908.2085,N,01016.2114,E,9.21,2.03,180415,,,A*63

$GPRMC,100402.000,A,5908.2111,N,01016.2116,E,9.21,4.07,180415,,,A*6C

$GPRMC,100403.000,A,5908.2137,N,01016.2121,E,9.17,6.53,180415,,,A*6B

$GPRMC,100404.000,A,5908.2162,N,01016.2129,E,9.12,8.38,180415,,,A*62

$GPRMC,100405.000,A,5908.2187,N,01016.2138,E,9.06,9.70,180415,,,A*60

$GPRMC,100406.000,A,5908.2211,N,01016.2147,E,9.02,10.11,180415,,,A*5C
$GPRMC,100407.000,A,5908.2236,N,01016.2156,E,8.98,11.23,180415,,,A*5A
$GPRMC,100408.000,A,5908.2260,N,01016.2165,E,8.94,10.95,180415,,,A*56
$GPRMC,100409.000,A,5908.2285,N,01016.2173,E,8.91,10.37,180415,,,A*56
$GPRMC,100410.000,A,5908.2310,N,01016.2179,E,8.91,8.90,180415,,,A*6D

$GPRMC,100411.000,A,5908.2334,N,01016.2184,E,8.90,6.78,180415,,,A*61

$GPRMC,100412.000,A,5908.2358,N,01016.2187,E,8.66,4.74,180415,,,A*6C

$GPRMC,100413.000,A,5908.2382,N,01016.2190,E,8.69,3.03,180415,,,A*64

$GPRMC,100416.000,A,5908.2456,N,01016.2190,E,8.77,358.38,180415,,,A*65
$GPRMC,100420.000,A,5908.2557,N,01016.2172,E,9.34,352.61,180415,,,A*6C
$GPRMC,100421.000,A,5908.2582,N,01016.2165,E,9.32,351.44,180415,,,A*61
$GPRMC,100422.000,A,5908.2608,N,01016.2157,E,9.36,350.53,180415,,,A*61
$GPRMC,100423.000,A,5908.2635,N,01016.2148,E,10.06,350.00,180415,,,A*5D
$GPRMC,100424.000,A,5908.2663,N,01016.2138,E,10.25,349.85,180415,,,A*5A
$GPRMC,100425.000,A,5908.2693,N,01016.2129,E,11.68,350.28,180415,,,A*53
$GPRMC,100426.000,A,5908.2723,N,01016.2119,E,10.87,350.23,180415,,,A*52
$GPRMC,100427.000,A,5908.2753,N,01016.2110,E,10.86,350.43,180415,,,A*5A
$GPRMC,100428.000,A,5908.2783,N,01016.2100,E,10.90,350.67,180415,,,A*58
$GPRMC,100429.000,A,5908.2814,N,01016.2090,E,10.96,350.84,180415,,,A*5B
$GPRMC,100430.000,A,5908.2844,N,01016.2080,E,11.03,350.85,180415,,,A*5B
$GPRMC,100431.000,A,5908.2875,N,01016.2070,E,11.10,350.93,180415,,,A*52
$GPRMC,100432.000,A,5908.2905,N,01016.2060,E,11.15,350.54,180415,,,A*58
$GPRMC,100433.000,A,5908.2936,N,01016.2050,E,11.20,350.16,180415,,,A*5A
$GPRMC,100434.000,A,5908.2966,N,01016.2039,E,11.20,349.82,180415,,,A*52
$GPRMC,100435.000,A,5908.2996,N,01016.2028,E,11.00,349.49,180415,,,A*59
$GPRMC,100436.000,A,5908.3026,N,01016.2016,E,10.92,348.86,180415,,,A*5C
$GPRMC,100437.000,A,5908.3056,N,01016.2002,E,10.66,347.83,180415,,,A*5E
$GPRMC,100438.000,A,5908.3084,N,01016.1988,E,10.45,346.60,180415,,,A*5B
$GPRMC,100439.000,A,5908.3112,N,01016.1974,E,10.74,345.58,180415,,,A*5D
$GPRMC,100440.000,A,5908.3141,N,01016.1959,E,11.08,344.85,180415,,,A*51
$GPRMC,100441.000,A,5908.3170,N,01016.1943,E,10.82,344.32,180415,,,A*56
$GPRMC,100442.000,A,5908.3199,N,01016.1927,E,11.06,343.95,180415,,,A*57
$GPRMC,100443.000,A,5908.3228,N,01016.1909,E,11.21,343.43,180415,,,A*5D
$GPRMC,100444.000,A,5908.3257,N,01016.1891,E,10.81,343.00,180415,,,A*5E
$GPRMC,100445.000,A,5908.3286,N,01016.1874,E,10.60,342.93,180415,,,A*5C
$GPRMC,100446.000,A,5908.3314,N,01016.1858,E,10.38,343.36,180415,,,A*58
$GPRMC,100447.000,A,5908.3341,N,01016.1844,E,9.96,344.34,180415,,,A*6D

$GPRMC,100448.000,A,5908.3366,N,01016.1832,E,9.51,345.66,180415,,,A*6B

$GPRMC,100449.000,A,5908.3391,N,01016.1822,E,9.09,347.33,180415,,,A*6C

$GPRMC,100450.000,A,5908.3416,N,01016.1814,E,8.93,349.29,180415,,,A*6E

$GPRMC,100451.000,A,5908.3440,N,01016.1808,E,8.88,351.71,180415,,,A*6F

$GPRMC,100452.000,A,5908.3464,N,01016.1804,E,8.68,354.16,180415,,,A*6C

$GPRMC,100453.000,A,5908.3489,N,01016.1801,E,8.69,356.78,180415,,,A*60

$GPRMC,100454.000,A,5908.3514,N,01016.1801,E,9.24,0.97,180415,,,A*6B

$GPRMC,100455.000,A,5908.3541,N,01016.1803,E,9.73,3.11,180415,,,A*67

$GPRMC,100456.000,A,5908.3568,N,01016.1808,E,9.47,5.33,180415,,,A*65

$GPRMC,100457.000,A,5908.3593,N,01016.1817,E,9.01,6.91,180415,,,A*67

$GPRMC,100458.000,A,5908.3617,N,01016.1827,E,9.02,8.21,180415,,,A*62

$GPRMC,100459.000,A,5908.3642,N,01016.1837,E,9.54,9.12,180415,,,A*60

$GPRMC,100500.000,A,5908.3668,N,01016.1848,E,9.88,10.17,180415,,,A*51
$GPRMC,100501.000,A,5908.3695,N,01016.1859,E,9.95,10.61,180415,,,A*5F
$GPRMC,100502.000,A,5908.3722,N,01016.1870,E,9.94,11.23,180415,,,A*5C
$GPRMC,100503.000,A,5908.3749,N,01016.1882,E,9.75,12.06,180415,,,A*56
$GPRMC,100504.000,A,5908.3775,N,01016.1893,E,9.53,12.97,180415,,,A*52
$GPRMC,100505.000,A,5908.3801,N,01016.1905,E,9.35,13.76,180415,,,A*5F
$GPRMC,100506.000,A,5908.3827,N,01016.1916,E,9.19,14.02,180415,,,A*50
$GPRMC,100507.000,A,5908.3852,N,01016.1927,E,9.11,14.02,180415,,,A*59
$GPRMC,100508.000,A,5908.3877,N,01016.1937,E,8.88,13.80,180415,,,A*5C
$GPRMC,100509.000,A,5908.3901,N,01016.1947,E,8.82,13.75,180415,,,A*5A
$GPRMC,100510.000,A,5908.3925,N,01016.1958,E,8.60,14.11,180415,,,A*53
$GPRMC,100511.000,A,5908.3948,N,01016.1971,E,8.62,14.87,180415,,,A*5F
$GPRMC,100512.000,A,5908.3971,N,01016.1985,E,9.02,15.75,180415,,,A*56
$GPRMC,100513.000,A,5908.3995,N,01016.2000,E,9.48,16.71,180415,,,A*53
$GPRMC,100514.000,A,5908.4019,N,01016.2016,E,9.16,17.45,180415,,,A*54
$GPRMC,100515.000,A,5908.4043,N,01016.2032,E,8.94,18.40,180415,,,A*5D
$GPRMC,100516.000,A,5908.4066,N,01016.2050,E,8.97,19.50,180415,,,A*5E
$GPRMC,100517.000,A,5908.4089,N,01016.2068,E,9.00,21.21,180415,,,A*57
$GPRMC,100520.000,A,5908.4156,N,01016.2135,E,9.06,27.09,180415,,,A*53
$GPRMC,100521.000,A,5908.4177,N,01016.2162,E,8.65,28.43,180415,,,A*56
$GPRMC,100522.000,A,5908.4195,N,01016.2192,E,8.68,29.69,180415,,,A*52
$GPRMC,100523.000,A,5908.4214,N,01016.2226,E,9.26,31.02,180415,,,A*5A
$GPRMC,100524.000,A,5908.4232,N,01016.2262,E,9.28,32.38,180415,,,A*5D
$GPRMC,100525.000,A,5908.4248,N,01016.2301,E,9.07,34.15,180415,,,A*51
$GPRMC,100526.000,A,5908.4265,N,01016.2339,E,9.13,35.74,180415,,,A*55
$GPRMC,100527.000,A,5908.4281,N,01016.2379,E,9.40,37.36,180415,,,A*58
$GPRMC,100528.000,A,5908.4295,N,01016.2427,E,9.66,39.11,180415,,,A*51
$GPRMC,100529.000,A,5908.4308,N,01016.2475,E,9.88,41.06,180415,,,A*5B
$GPRMC,100530.000,A,5908.4320,N,01016.2523,E,9.82,43.18,180415,,,A*5C
$GPRMC,100531.000,A,5908.4330,N,01016.2570,E,9.40,45.37,180415,,,A*5F
$GPRMC,100532.000,A,5908.4339,N,01016.2617,E,9.09,47.61,180415,,,A*5B
$GPRMC,100533.000,A,5908.4347,N,01016.2662,E,8.86,49.76,180415,,,A*5F
$GPRMC,100534.000,A,5908.4357,N,01016.2705,E,8.69,51.70,180415,,,A*57
$GPRMC,100535.000,A,5908.4367,N,01016.2746,E,8.66,53.35,180415,,,A*5E
$GPRMC,100536.000,A,5908.4378,N,01016.2787,E,8.61,54.70,180415,,,A*5F
$GPRMC,100537.000,A,5908.4389,N,01016.2826,E,8.35,55.82,180415,,,A*59
$GPRMC,100538.000,A,5908.4398,N,01016.2863,E,7.43,69.08,180415,,,A*54
$GPRMC,100539.000,A,5908.4404,N,01016.2899,E,7.10,83.21,180415,,,A*5B
$GPRMC,100540.000,A,5908.4403,N,01016.2935,E,7.06,101.70,180415,,,A*6D
$GPRMC,100541.000,A,5908.4396,N,01016.2970,E,7.64,117.48,180415,,,A*6E
$GPRMC,100542.000,A,5908.4383,N,01016.3004,E,8.74,130.10,180415,,,A*64
$GPRMC,100543.000,A,5908.4366,N,01016.3041,E,9.91,132.27,180415,,,A*63
$GPRMC,100544.000,A,5908.4347,N,01016.3080,E,9.98,131.97,180415,,,A*6B
$GPRMC,100545.000,A,5908.4327,N,01016.3121,E,9.98,130.80,180415,,,A*61
$GPRMC,100546.000,A,5908.4309,N,01016.3163,E,10.03,129.24,180415,,,A*54
$GPRMC,100547.000,A,5908.4290,N,01016.3206,E,10.10,128.44,180415,,,A*51
$GPRMC,100548.000,A,5908.4272,N,01016.3250,E,10.31,127.12,180415,,,A*5E
$GPRMC,100549.000,A,5908.4256,N,01016.3295,E,10.15,120.47,180415,,,A*51
$GPRMC,100550.000,A,5908.4243,N,01016.3343,E,10.11,115.39,180415,,,A*5C
$GPRMC,100551.000,A,5908.4231,N,01016.3392,E,10.04,109.92,180415,,,A*5C
$GPRMC,100552.000,A,5908.4222,N,01016.3444,E,10.02,104.20,180415,,,A*53
$GPRMC,100553.000,A,5908.4216,N,01016.3496,E,9.75,96.45,180415,,,A*5B

$GPRMC,100554.000,A,5908.4212,N,01016.3548,E,9.76,98.59,180415,,,A*5A

$GPRMC,100555.000,A,5908.4208,N,01016.3600,E,9.45,98.27,180415,,,A*56

$GPRMC,100556.000,A,5908.4204,N,01016.3651,E,9.40,98.57,180415,,,A*5F

$GPRMC,100557.000,A,5908.4200,N,01016.3701,E,9.21,98.67,180415,,,A*5A

$GPRMC,100558.000,A,5908.4195,N,01016.3750,E,8.99,98.85,180415,,,A*50

$GPRMC,100559.000,A,5908.4191,N,01016.3798,E,8.92,99.32,180415,,,A*57

$GPRMC,100600.000,A,5908.4187,N,01016.3846,E,9.15,100.13,180415,,,A*6F
$GPRMC,100601.000,A,5908.4182,N,01016.3894,E,9.18,100.92,180415,,,A*60
$GPRMC,100602.000,A,5908.4177,N,01016.3943,E,9.14,102.05,180415,,,A*62
$GPRMC,100603.000,A,5908.4170,N,01016.3990,E,8.98,103.20,180415,,,A*69
$GPRMC,100604.000,A,5908.4164,N,01016.4037,E,8.93,104.50,180415,,,A*63
$GPRMC,100605.000,A,5908.4156,N,01016.4082,E,8.77,106.04,180415,,,A*64
$GPRMC,100606.000,A,5908.4148,N,01016.4127,E,8.69,107.67,180415,,,A*6D
$GPRMC,100607.000,A,5908.4140,N,01016.4171,E,8.45,109.30,180415,,,A*65
$GPRMC,100608.000,A,5908.4132,N,01016.4212,E,8.20,110.99,180415,,,A*61
$GPRMC,100609.000,A,5908.4123,N,01016.4253,E,8.52,112.38,180415,,,A*69
$GPRMC,100610.000,A,5908.4114,N,01016.4295,E,8.92,113.53,180415,,,A*6F
$GPRMC,100611.000,A,5908.4104,N,01016.4338,E,8.96,114.40,180415,,,A*68
$GPRMC,100612.000,A,5908.4094,N,01016.4382,E,8.80,115.07,180415,,,A*67
$GPRMC,100613.000,A,5908.4083,N,01016.4424,E,8.76,115.51,180415,,,A*61
$GPRMC,100614.000,A,5908.4072,N,01016.4467,E,8.76,115.56,180415,,,A*68
$GPRMC,100615.000,A,5908.4062,N,01016.4509,E,8.39,115.31,180415,,,A*6B
$GPRMC,100616.000,A,5908.4053,N,01016.4549,E,7.98,114.70,180415,,,A*6E
$GPRMC,100617.000,A,5908.4044,N,01016.4590,E,8.56,113.92,180415,,,A*6B
$GPRMC,100618.000,A,5908.4034,N,01016.4634,E,9.40,112.74,180415,,,A*61
$GPRMC,100619.000,A,5908.4025,N,01016.4682,E,9.98,111.44,180415,,,A*68
$GPRMC,100620.000,A,5908.4015,N,01016.4734,E,10.29,110.23,180415,,,A*5F
$GPRMC,100621.000,A,5908.4006,N,01016.4785,E,9.76,109.09,180415,,,A*64

$GPRMC,100622.000,A,5908.3997,N,01016.4835,E,9.22,107.87,180415,,,A*6C

$GPRMC,100623.000,A,5908.3990,N,01016.4883,E,9.40,106.80,180415,,,A*65

$GPRMC,100624.000,A,5908.3982,N,01016.4932,E,9.64,106.05,180415,,,A*61

$GPRMC,100625.000,A,5908.3975,N,01016.4979,E,9.01,105.43,180415,,,A*65

$GPRMC,100626.000,A,5908.3969,N,01016.5021,E,8.19,105.18,180415,,,A*68

$GPRMC,100627.000,A,5908.3963,N,01016.5064,E,8.40,105.41,180415,,,A*62

$GPRMC,100628.000,A,5908.3956,N,01016.5110,E,8.81,106.10,180415,,,A*63

$GPRMC,100629.000,A,5908.3947,N,01016.5156,E,8.84,107.62,180415,,,A*61

$GPRMC,100630.000,A,5908.3937,N,01016.5202,E,9.35,108.41,180415,,,A*69

$GPRMC,100631.000,A,5908.3926,N,01016.5249,E,9.94,109.37,180415,,,A*6C

$GPRMC,100632.000,A,5908.3913,N,01016.5295,E,10.19,122.90,180415,,,A*51
$GPRMC,100633.000,A,5908.3896,N,01016.5339,E,10.18,128.79,180415,,,A*57
$GPRMC,100634.000,A,5908.3877,N,01016.5380,E,9.93,134.33,180415,,,A*65

$GPRMC,100635.000,A,5908.3856,N,01016.5417,E,9.64,139.00,180415,,,A*6B

$GPRMC,100636.000,A,5908.3835,N,01016.5449,E,9.61,142.89,180415,,,A*6E

$GPRMC,100637.000,A,5908.3812,N,01016.5479,E,9.69,146.49,180415,,,A*69

$GPRMC,100638.000,A,5908.3789,N,01016.5506,E,9.92,149.30,180415,,,A*67

$GPRMC,100639.000,A,5908.3765,N,01016.5532,E,9.86,151.59,180415,,,A*60

$GPRMC,100640.000,A,5908.3740,N,01016.5555,E,9.45,154.30,180415,,,A*6D

$GPRMC,100641.000,A,5908.3716,N,01016.5576,E,9.14,156.99,180415,,,A*6B

$GPRMC,100642.000,A,5908.3692,N,01016.5594,E,9.17,160.09,180415,,,A*66

$GPRMC,100643.000,A,5908.3667,N,01016.5609,E,9.22,162.15,180415,,,A*63

$GPRMC,100644.000,A,5908.3642,N,01016.5623,E,9.26,164.14,180415,,,A*68

$GPRMC,100645.000,A,5908.3617,N,01016.5636,E,9.28,165.56,180415,,,A*64

$GPRMC,100646.000,A,5908.3592,N,01016.5648,E,8.99,166.79,180415,,,A*65

$GPRMC,100647.000,A,5908.3568,N,01016.5659,E,8.64,167.83,180415,,,A*67

$GPRMC,100648.000,A,5908.3545,N,01016.5668,E,8.61,168.95,180415,,,A*68

$GPRMC,100649.000,A,5908.3521,N,01016.5676,E,8.88,169.40,180415,,,A*6A

$GPRMC,100650.000,A,5908.3496,N,01016.5684,E,9.29,170.24,180415,,,A*62

$GPRMC,100651.000,A,5908.3470,N,01016.5692,E,9.78,170.39,180415,,,A*64

$GPRMC,100652.000,A,5908.3443,N,01016.5701,E,9.71,170.10,180415,,,A*6E

$GPRMC,100653.000,A,5908.3417,N,01016.5710,E,9.50,170.09,180415,,,A*65

$GPRMC,100654.000,A,5908.3390,N,01016.5719,E,9.86,170.05,180415,,,A*64

$GPRMC,100655.000,A,5908.3363,N,01016.5727,E,9.90,170.12,180415,,,A*65

$GPRMC,100656.000,A,5908.3336,N,01016.5734,E,10.40,169.74,180415,,,A*59
$GPRMC,100657.000,A,5908.3308,N,01016.5743,E,10.36,169.91,180415,,,A*5F
$GPRMC,100658.000,A,5908.3280,N,01016.5751,E,10.01,170.49,180415,,,A*5B
$GPRMC,100659.000,A,5908.3253,N,01016.5758,E,9.66,171.20,180415,,,A*6A

$GPRMC,100700.000,A,5908.3226,N,01016.5765,E,9.59,171.70,180415,,,A*62

$GPRMC,100701.000,A,5908.3200,N,01016.5771,E,9.43,172.28,180415,,,A*67

$GPRMC,100702.000,A,5908.3175,N,01016.5777,E,9.41,172.77,180415,,,A*6B

$GPRMC,100703.000,A,5908.3149,N,01016.5783,E,9.39,173.15,180415,,,A*64

$GPRMC,100704.000,A,5908.3123,N,01016.5788,E,9.32,173.52,180415,,,A*6C

$GPRMC,100705.000,A,5908.3098,N,01016.5794,E,9.06,174.02,180415,,,A*64

$GPRMC,100706.000,A,5908.3074,N,01016.5798,E,8.66,174.57,180415,,,A*6E

$GPRMC,100707.000,A,5908.3050,N,01016.5801,E,8.31,175.00,180415,,,A*67

$GPRMC,100711.000,A,5908.2960,N,01016.5819,E,8.04,172.59,180415,,,A*6F

$GPRMC,100712.000,A,5908.2939,N,01016.5827,E,7.81,170.48,180415,,,A*6D

$GPRMC,100713.000,A,5908.2917,N,01016.5837,E,8.00,167.92,180415,,,A*66

$GPRMC,100714.000,A,5908.2895,N,01016.5849,E,8.22,165.83,180415,,,A*61

$GPRMC,100715.000,A,5908.2874,N,01016.5860,E,8.20,164.64,180415,,,A*6E

$GPRMC,100716.000,A,5908.2852,N,01016.5869,E,8.14,164.86,180415,,,A*6B

$GPRMC,100717.000,A,5908.2831,N,01016.5877,E,8.16,165.09,180415,,,A*64

$GPRMC,100718.000,A,5908.2808,N,01016.5885,E,8.15,166.93,180415,,,A*6F

$GPRMC,100719.000,A,5908.2787,N,01016.5894,E,7.63,168.02,180415,,,A*6E

$GPRMC,100720.000,A,5908.2767,N,01016.5904,E,7.25,166.88,180415,,,A*6C

$GPRMC,100724.000,A,5908.2690,N,01016.5961,E,7.62,164.47,180415,,,A*60

$GPRMC,100725.000,A,5908.2669,N,01016.5977,E,8.10,164.21,180415,,,A*6A

$GPRMC,100726.000,A,5908.2648,N,01016.5994,E,8.32,163.36,180415,,,A*66

$GPRMC,100727.000,A,5908.2628,N,01016.6012,E,8.33,162.71,180415,,,A*66

$GPRMC,100728.000,A,5908.2605,N,01016.6032,E,8.29,162.01,180415,,,A*68

$GPRMC,100729.000,A,5908.2584,N,01016.6051,E,8.23,161.36,180415,,,A*6B

$GPRMC,100730.000,A,5908.2564,N,01016.6070,E,8.18,160.65,180415,,,A*61

$GPRMC,100731.000,A,5908.2544,N,01016.6089,E,8.11,159.92,180415,,,A*6F

$GPRMC,100732.000,A,5908.2523,N,01016.6110,E,8.09,159.27,180415,,,A*6B

$GPRMC,100733.000,A,5908.2502,N,01016.6130,E,8.65,158.68,180415,,,A*6B

$GPRMC,100734.000,A,5908.2481,N,01016.6150,E,8.84,156.61,180415,,,A*68

$GPRMC,100735.000,A,5908.2459,N,01016.6171,E,8.86,154.65,180415,,,A*6B

$GPRMC,100736.000,A,5908.2437,N,01016.6193,E,8.84,152.75,180415,,,A*69

$GPRMC,100737.000,A,5908.2415,N,01016.6217,E,8.77,150.95,180415,,,A*67

$GPRMC,100738.000,A,5908.2395,N,01016.6241,E,8.55,149.32,180415,,,A*61

$GPRMC,100739.000,A,5908.2375,N,01016.6264,E,8.20,147.61,180415,,,A*63

$GPRMC,100740.000,A,5908.2358,N,01016.6290,E,7.60,146.41,180415,,,A*61

$GPRMC,100741.000,A,5908.2341,N,01016.6317,E,7.64,145.30,180415,,,A*67

$GPRMC,100742.000,A,5908.2325,N,01016.6346,E,8.10,144.19,180415,,,A*64

$GPRMC,100743.000,A,5908.2310,N,01016.6378,E,8.15,143.07,180415,,,A*63

$GPRMC,100744.000,A,5908.2296,N,01016.6412,E,8.11,141.84,180415,,,A*6D

$GPRMC,100748.000,A,5908.2255,N,01016.6556,E,7.37,106.47,180415,,,A*68

$GPRMC,100752.000,A,5908.2252,N,01016.6724,E,8.07,86.84,180415,,,A*59

$GPRMC,100753.000,A,5908.2253,N,01016.6769,E,8.28,87.83,180415,,,A*5B

$GPRMC,100754.000,A,5908.2254,N,01016.6815,E,8.54,89.14,180415,,,A*54

$GPRMC,100755.000,A,5908.2255,N,01016.6863,E,8.79,89.06,180415,,,A*59

$GPRMC,100756.000,A,5908.2256,N,01016.6912,E,8.96,87.17,180415,,,A*51

$GPRMC,100757.000,A,5908.2259,N,01016.6962,E,9.21,84.45,180415,,,A*51

$GPRMC,100758.000,A,5908.2264,N,01016.7013,E,9.21,83.91,180415,,,A*50

$GPRMC,100759.000,A,5908.2269,N,01016.7062,E,8.92,82.20,180415,,,A*58

$GPRMC,100800.000,A,5908.2272,N,01016.7109,E,8.54,81.57,180415,,,A*54

$GPRMC,100801.000,A,5908.2274,N,01016.7154,E,7.97,81.86,180415,,,A*57

$GPRMC,100802.000,A,5908.2277,N,01016.7195,E,7.26,82.87,180415,,,A*52

$GPRMC,100803.000,A,5908.2279,N,01016.7234,E,7.29,83.92,180415,,,A*5F

$GPRMC,100804.000,A,5908.2280,N,01016.7276,E,8.24,85.38,180415,,,A*5C

$GPRMC,100805.000,A,5908.2281,N,01016.7324,E,8.92,86.68,180415,,,A*51

$GPRMC,100806.000,A,5908.2282,N,01016.7372,E,9.08,88.39,180415,,,A*5A

$GPRMC,100807.000,A,5908.2282,N,01016.7421,E,9.04,89.81,180415,,,A*54

$GPRMC,100808.000,A,5908.2281,N,01016.7470,E,8.87,91.46,180415,,,A*54

$GPRMC,100809.000,A,5908.2280,N,01016.7519,E,9.08,93.07,180415,,,A*5B

$GPRMC,100810.000,A,5908.2278,N,01016.7568,E,9.34,94.75,180415,,,A*5F

$GPRMC,100811.000,A,5908.2276,N,01016.7617,E,8.78,96.14,180415,,,A*57

$GPRMC,100812.000,A,5908.2272,N,01016.7664,E,8.75,97.30,180415,,,A*5E

$GPRMC,100813.000,A,5908.2269,N,01016.7713,E,9.55,98.49,180415,,,A*56

$GPRMC,100814.000,A,5908.2265,N,01016.7765,E,9.97,99.90,180415,,,A*57

$GPRMC,100815.000,A,5908.2260,N,01016.7816,E,9.11,101.66,180415,,,A*6F
$GPRMC,100816.000,A,5908.2254,N,01016.7862,E,8.57,103.24,180415,,,A*6F
$GPRMC,100817.000,A,5908.2247,N,01016.7905,E,8.38,105.23,180415,,,A*64
$GPRMC,100818.000,A,5908.2240,N,01016.7947,E,8.05,107.43,180415,,,A*60
$GPRMC,100819.000,A,5908.2231,N,01016.7986,E,7.59,114.40,180415,,,A*6D
$GPRMC,100820.000,A,5908.2222,N,01016.8020,E,7.15,118.62,180415,,,A*6B
$GPRMC,100821.000,A,5908.2212,N,01016.8053,E,7.13,122.23,180415,,,A*67
$GPRMC,100822.000,A,5908.2200,N,01016.8084,E,7.10,126.52,180415,,,A*6C
$GPRMC,100823.000,A,5908.2187,N,01016.8113,E,7.12,130.60,180415,,,A*6A
$GPRMC,100824.000,A,5908.2173,N,01016.8140,E,7.15,134.97,180415,,,A*6B
$GPRMC,100825.000,A,5908.2158,N,01016.8166,E,7.40,140.25,180415,,,A*6D
$GPRMC,100826.000,A,5908.2140,N,01016.8190,E,7.66,145.46,180415,,,A*6A
$GPRMC,100827.000,A,5908.2122,N,01016.8211,E,7.39,148.77,180415,,,A*60
$GPRMC,100828.000,A,5908.2105,N,01016.8230,E,7.14,151.20,180415,,,A*6C
$GPRMC,100829.000,A,5908.2084,N,01016.8245,E,7.07,151.99,180415,,,A*67
$GPRMC,100830.000,A,5908.2066,N,01016.8259,E,7.04,152.94,180415,,,A*63
$GPRMC,100831.000,A,5908.2049,N,01016.8275,E,7.05,152.95,180415,,,A*61
$GPRMC,100832.000,A,5908.2031,N,01016.8293,E,7.06,152.58,180415,,,A*67
$GPRMC,100833.000,A,5908.2013,N,01016.8311,E,7.11,151.89,180415,,,A*64
$GPRMC,100834.000,A,5908.1996,N,01016.8328,E,7.14,151.56,180415,,,A*69
$GPRMC,100835.000,A,5908.1978,N,01016.8347,E,7.44,151.40,180415,,,A*63
$GPRMC,100836.000,A,5908.1959,N,01016.8366,E,7.65,151.49,180415,,,A*6A
$GPRMC,100837.000,A,5908.1940,N,01016.8385,E,7.73,151.37,180415,,,A*60
$GPRMC,100838.000,A,5908.1921,N,01016.8405,E,8.02,151.63,180415,,,A*6F
$GPRMC,100839.000,A,5908.1902,N,01016.8426,E,8.03,151.69,180415,,,A*65
$GPRMC,100840.000,A,5908.1883,N,01016.8447,E,7.79,151.51,180415,,,A*6D
$GPRMC,100841.000,A,5908.1863,N,01016.8468,E,8.24,151.20,180415,,,A*6E
$GPRMC,100842.000,A,5908.1843,N,01016.8490,E,8.71,151.01,180415,,,A*6B
$GPRMC,100843.000,A,5908.1821,N,01016.8513,E,9.04,150.87,180415,,,A*68
$GPRMC,100844.000,A,5908.1799,N,01016.8537,E,9.20,150.96,180415,,,A*63
$GPRMC,100845.000,A,5908.1776,N,01016.8561,E,9.16,151.34,180415,,,A*6C
$GPRMC,100846.000,A,5908.1754,N,01016.8583,E,9.00,151.70,180415,,,A*64
$GPRMC,100847.000,A,5908.1732,N,01016.8606,E,8.79,151.79,180415,,,A*6D
$GPRMC,100848.000,A,5908.1711,N,01016.8628,E,8.46,151.19,180415,,,A*65
$GPRMC,100849.000,A,5908.1691,N,01016.8651,E,8.38,150.15,180415,,,A*67
$GPRMC,100850.000,A,5908.1671,N,01016.8674,E,8.20,149.14,180415,,,A*66
$GPRMC,100851.000,A,5908.1652,N,01016.8697,E,7.99,148.38,180415,,,A*69
$GPRMC,100852.000,A,5908.1633,N,01016.8719,E,7.98,148.12,180415,,,A*63
$GPRMC,100853.000,A,5908.1614,N,01016.8741,E,8.27,148.57,180415,,,A*60
$GPRMC,100854.000,A,5908.1594,N,01016.8764,E,8.10,148.83,180415,,,A*66
$GPRMC,100855.000,A,5908.1575,N,01016.8787,E,8.08,148.60,180415,,,A*61
$GPRMC,100856.000,A,5908.1557,N,01016.8810,E,7.88,147.74,180415,,,A*6E
$GPRMC,100857.000,A,5908.1539,N,01016.8834,E,7.68,146.45,180415,,,A*6C
$GPRMC,100858.000,A,5908.1521,N,01016.8858,E,7.87,144.67,180415,,,A*63
$GPRMC,100859.000,A,5908.1504,N,01016.8885,E,8.38,142.30,180415,,,A*6A
$GPRMC,100903.000,A,5908.1438,N,01016.9024,E,9.17,138.00,180415,,,A*6A
$GPRMC,100904.000,A,5908.1421,N,01016.9062,E,9.44,137.27,180415,,,A*6B
$GPRMC,100905.000,A,5908.1403,N,01016.9101,E,9.50,136.31,180415,,,A*6D
$GPRMC,100906.000,A,5908.1386,N,01016.9140,E,9.57,134.14,180415,,,A*63
$GPRMC,100907.000,A,5908.1368,N,01016.9179,E,9.74,132.95,180415,,,A*66
$GPRMC,100908.000,A,5908.1349,N,01016.9217,E,9.72,132.44,180415,,,A*6B
$GPRMC,100909.000,A,5908.1330,N,01016.9254,E,9.66,132.90,180415,,,A*6F
$GPRMC,100910.000,A,5908.1311,N,01016.9290,E,9.59,133.90,180415,,,A*61
$GPRMC,100911.000,A,5908.1293,N,01016.9326,E,9.35,135.50,180415,,,A*67
$GPRMC,100912.000,A,5908.1275,N,01016.9359,E,9.04,136.37,180415,,,A*64
$GPRMC,100913.000,A,5908.1257,N,01016.9392,E,8.52,137.54,180415,,,A*64
$GPRMC,100914.000,A,5908.1240,N,01016.9421,E,7.86,138.47,180415,,,A*61
$GPRMC,100915.000,A,5908.1223,N,01016.9447,E,7.65,139.47,180415,,,A*69
$GPRMC,100916.000,A,5908.1207,N,01016.9473,E,7.71,140.40,180415,,,A*67
$GPRMC,100917.000,A,5908.1190,N,01016.9499,E,7.97,141.47,180415,,,A*61
$GPRMC,100918.000,A,5908.1172,N,01016.9524,E,8.30,142.95,180415,,,A*6B
$GPRMC,100919.000,A,5908.1152,N,01016.9551,E,8.71,144.48,180415,,,A*69
$GPRMC,100920.000,A,5908.1132,N,01016.9576,E,8.51,145.53,180415,,,A*69
$GPRMC,100921.000,A,5908.1113,N,01016.9602,E,8.47,146.18,180415,,,A*60
$GPRMC,100922.000,A,5908.1094,N,01016.9628,E,8.49,146.19,180415,,,A*6A
$GPRMC,100923.000,A,5908.1074,N,01016.9654,E,8.54,146.35,180415,,,D*69
$GPRMC,100924.000,A,5908.1054,N,01016.9679,E,8.54,146.79,180415,,,D*6B
$GPRMC,100925.000,A,5908.1035,N,01016.9703,E,8.32,147.23,180415,,,D*6F
$GPRMC,100926.000,A,5908.1016,N,01016.9725,E,7.92,147.78,180415,,,D*62
$GPRMC,100927.000,A,5908.0997,N,01016.9747,E,7.51,148.24,180415,,,D*6F
$GPRMC,100928.000,A,5908.0981,N,01016.9768,E,7.16,148.10,180415,,,D*6E
$GPRMC,100929.000,A,5908.0964,N,01016.9788,E,7.15,148.22,180415,,,D*68
$GPRMC,100930.000,A,5908.0946,N,01016.9808,E,7.41,148.71,180415,,,D*60
$GPRMC,100931.000,A,5908.0929,N,01016.9828,E,7.60,149.64,180415,,,D*6C
$GPRMC,100932.000,A,5908.0910,N,01016.9847,E,7.58,150.64,180415,,,D*6F
$GPRMC,100933.000,A,5908.0892,N,01016.9867,E,7.60,151.59,180415,,,D*63
$GPRMC,100934.000,A,5908.0873,N,01016.9886,E,7.68,152.14,180415,,,D*66
$GPRMC,100935.000,A,5908.0854,N,01016.9906,E,7.84,152.48,180415,,,D*60
$GPRMC,100936.000,A,5908.0834,N,01016.9926,E,8.15,153.19,180415,,,D*65
$GPRMC,100937.000,A,5908.0813,N,01016.9944,E,8.51,154.72,180415,,,D*6F
$GPRMC,100938.000,A,5908.0791,N,01016.9962,E,8.49,157.02,180415,,,D*6C
$GPRMC,100939.000,A,5908.0769,N,01016.9976,E,8.52,158.27,180415,,,D*6D
$GPRMC,100940.000,A,5908.0746,N,01016.9988,E,8.53,159.53,180415,,,D*6C
$GPRMC,100941.000,A,5908.0723,N,01016.9998,E,8.69,160.60,180415,,,D*6C
$GPRMC,100942.000,A,5908.0699,N,01017.0005,E,8.76,161.54,180415,,,D*62
$GPRMC,100943.000,A,5908.0675,N,01017.0010,E,8.74,162.57,180415,,,D*67
$GPRMC,100944.000,A,5908.0651,N,01017.0014,E,8.55,164.01,180415,,,D*64
$GPRMC,100945.000,A,5908.0627,N,01017.0017,E,8.83,165.20,180415,,,D*6E
$GPRMC,100946.000,A,5908.0603,N,01017.0019,E,8.89,166.38,180415,,,D*65
$GPRMC,100947.000,A,5908.0578,N,01017.0020,E,8.73,167.58,180415,,,D*63
$GPRMC,100948.000,A,5908.0554,N,01017.0021,E,8.74,168.72,180415,,,D*63
